[
  {
    "id": "1",
    "slug": "al-birwa",
    "name": "al-Birwa",
    "district": "Acre",
    "lat": 32.9055,
    "lng": 35.1787
  },
  {
    "id": "2",
    "slug": "al-damun",
    "name": "al-Damun",
    "district": "Acre",
    "lat": 32.8768,
    "lng": 35.1823
  },
  {
    "id": "3",
    "slug": "al-sumayriyya",
    "name": "al-Sumayriyya",
    "district": "Acre",
    "lat": 32.9723,
    "lng": 35.0927
  },
  {
    "id": "4",
    "slug": "al-bassa",
    "name": "al-Bassa",
    "district": "Acre",
    "lat": 33.073,
    "lng": 35.143
  },
  {
    "id": "5",
    "slug": "al-tira",
    "name": "al-Tira",
    "district": "Haifa",
    "lat": 32.7619,
    "lng": 34.9753
  },
  {
    "id": "6",
    "slug": "ayn-ghazal",
    "name": "Ayn Ghazal",
    "district": "Haifa",
    "lat": 32.6083,
    "lng": 35.005
  },
  {
    "id": "7",
    "slug": "ijzim",
    "name": "Ijzim",
    "district": "Haifa",
    "lat": 32.6256,
    "lng": 35.0083
  },
  {
    "id": "8",
    "slug": "al-tantura",
    "name": "al-Tantura",
    "district": "Haifa",
    "lat": 32.613,
    "lng": 34.921
  },
  {
    "id": "9",
    "slug": "ein-karem",
    "name": "Ein Karem",
    "district": "Jerusalem",
    "lat": 31.767,
    "lng": 35.163
  },
  {
    "id": "10",
    "slug": "salama",
    "name": "Salama",
    "district": "Jaffa",
    "lat": 32.054,
    "lng": 34.814
  },
  {
    "id": "11",
    "slug": "al-abbasiyya",
    "name": "al-'Abbasiyya",
    "district": "Jaffa",
    "lat": 32.0314,
    "lng": 34.8903
  },
  {
    "id": "12",
    "slug": "yazur",
    "name": "Yazur",
    "district": "Jaffa",
    "lat": 32.0289,
    "lng": 34.8
  },
  {
    "id": "13",
    "slug": "al-lajjun",
    "name": "al-Lajjun",
    "district": "Jinin",
    "lat": 32.593,
    "lng": 35.184
  },
  {
    "id": "14",
    "slug": "lifta",
    "name": "Lifta",
    "district": "Jerusalem",
    "lat": 31.8,
    "lng": 35.195
  },
  {
    "id": "15",
    "slug": "deir-yassin",
    "name": "Deir Yassin",
    "district": "Jerusalem",
    "lat": 31.797,
    "lng": 35.176
  },
  {
    "id": "16",
    "slug": "al-qastal",
    "name": "al-Qastal",
    "district": "Jerusalem",
    "lat": 31.7956,
    "lng": 35.1442
  },
  {
    "id": "17",
    "slug": "al-maliha",
    "name": "al-Maliha",
    "district": "Jerusalem",
    "lat": 31.7572,
    "lng": 35.1779
  },
  {
    "id": "18",
    "slug": "qalunya",
    "name": "Qalunya",
    "district": "Jerusalem",
    "lat": 31.7969,
    "lng": 35.1628
  },
  {
    "id": "19",
    "slug": "saris",
    "name": "Saris",
    "district": "Jerusalem",
    "lat": 31.7981,
    "lng": 35.0739
  },
  {
    "id": "20",
    "slug": "suba",
    "name": "Suba",
    "district": "Jerusalem",
    "lat": 31.785,
    "lng": 35.1256
  },
  {
    "id": "21",
    "slug": "bayt-mahsir",
    "name": "Bayt Mahsir",
    "district": "Jerusalem",
    "lat": 31.7944,
    "lng": 35.0875
  },
  {
    "id": "22",
    "slug": "kasla",
    "name": "Kasla",
    "district": "Jerusalem",
    "lat": 31.7942,
    "lng": 35.1022
  },
  {
    "id": "23",
    "slug": "qula",
    "name": "Qula",
    "district": "al-Ramla",
    "lat": 32.083,
    "lng": 34.966
  },
  {
    "id": "24",
    "slug": "isdud",
    "name": "Isdud",
    "district": "Gaza",
    "lat": 31.7536,
    "lng": 34.6617
  },
  {
    "id": "25",
    "slug": "al-faluja",
    "name": "al-Faluja",
    "district": "Gaza",
    "lat": 31.6247,
    "lng": 34.7478
  },
  {
    "id": "26",
    "slug": "iraq-suwaydan",
    "name": "Iraq Suwaydan",
    "district": "Gaza",
    "lat": 31.6486,
    "lng": 34.6928
  },
  {
    "id": "27",
    "slug": "al-masmiyya-al-kabira",
    "name": "al-Masmiyya al-Kabira",
    "district": "Gaza",
    "lat": 31.7575,
    "lng": 34.7847
  },
  {
    "id": "28",
    "slug": "saffuriyya",
    "name": "Saffuriyya",
    "district": "Nazareth",
    "lat": 32.7456,
    "lng": 35.2786
  },
  {
    "id": "29",
    "slug": "al-mujaydil",
    "name": "al-Mujaydil",
    "district": "Nazareth",
    "lat": 32.7236,
    "lng": 35.2511
  },
  {
    "id": "30",
    "slug": "malul",
    "name": "Ma'lul",
    "district": "Nazareth",
    "lat": 32.7247,
    "lng": 35.2422
  },
  {
    "id": "31",
    "slug": "allar",
    "name": "'Allar",
    "district": "Jerusalem",
    "lat": 31.73,
    "lng": 35.05
  },
  {
    "id": "32",
    "slug": "aqqur",
    "name": "'Aqqur",
    "district": "Jerusalem",
    "lat": 31.75,
    "lng": 35.0833
  },
  {
    "id": "33",
    "slug": "artuf",
    "name": "'Artuf",
    "district": "Jerusalem",
    "lat": 31.7833,
    "lng": 34.9833
  },
  {
    "id": "34",
    "slug": "beit-itab",
    "name": "Beit 'Itab",
    "district": "Jerusalem",
    "lat": 31.7333,
    "lng": 35.0667
  },
  {
    "id": "35",
    "slug": "beit-umm-al-mays",
    "name": "Beit Umm al-Mays",
    "district": "Jerusalem",
    "lat": 31.7667,
    "lng": 35.1
  },
  {
    "id": "36",
    "slug": "al-burayj",
    "name": "al-Burayj",
    "district": "Ramle",
    "lat": 31.8167,
    "lng": 34.9333
  },
  {
    "id": "37",
    "slug": "deir-amr",
    "name": "Deir 'Amr",
    "district": "Jerusalem",
    "lat": 31.8,
    "lng": 35.1
  },
  {
    "id": "38",
    "slug": "deir-aban",
    "name": "Deir Aban",
    "district": "Jerusalem",
    "lat": 31.7333,
    "lng": 34.9833
  },
  {
    "id": "39",
    "slug": "deir-al-hawa",
    "name": "Deir al-Hawa",
    "district": "Jerusalem",
    "lat": 31.75,
    "lng": 35.05
  },
  {
    "id": "40",
    "slug": "deir-al-sheikh",
    "name": "Deir al-Sheikh",
    "district": "Jerusalem",
    "lat": 31.7333,
    "lng": 35.0833
  },
  {
    "id": "41",
    "slug": "deir-rafat",
    "name": "Deir Rafat",
    "district": "Jerusalem",
    "lat": 31.8167,
    "lng": 34.95
  },
  {
    "id": "42",
    "slug": "ishwa",
    "name": "Ishwa'",
    "district": "Jerusalem",
    "lat": 31.8,
    "lng": 35
  },
  {
    "id": "43",
    "slug": "islin",
    "name": "'Islin",
    "district": "Jerusalem",
    "lat": 31.8,
    "lng": 35.0167
  },
  {
    "id": "44",
    "slug": "al-jura",
    "name": "al-Jura",
    "district": "Jerusalem",
    "lat": 31.7667,
    "lng": 35.1833
  },
  {
    "id": "45",
    "slug": "al-lawz-khirbat",
    "name": "al-Lawz, Khirbat",
    "district": "Jerusalem",
    "lat": 31.7833,
    "lng": 35.1167
  },
  {
    "id": "46",
    "slug": "al-qabu",
    "name": "al-Qabu",
    "district": "Jerusalem",
    "lat": 31.7167,
    "lng": 35.0667
  },
  {
    "id": "47",
    "slug": "ras-abu-ammar",
    "name": "Ras Abu 'Ammar",
    "district": "Jerusalem",
    "lat": 31.7167,
    "lng": 35.1
  },
  {
    "id": "48",
    "slug": "sara",
    "name": "Sar'a",
    "district": "Jerusalem",
    "lat": 31.7833,
    "lng": 34.9833
  },
  {
    "id": "49",
    "slug": "abu-al-fadl",
    "name": "Abu al-Fadl",
    "district": "Ramle",
    "lat": 31.9,
    "lng": 34.8833
  },
  {
    "id": "50",
    "slug": "abu-shusha",
    "name": "Abu Shusha",
    "district": "Ramle",
    "lat": 31.8667,
    "lng": 34.95
  },
  {
    "id": "51",
    "slug": "al-naani",
    "name": "al-Na'ani",
    "district": "Ramle",
    "lat": 31.8833,
    "lng": 34.8833
  },
  {
    "id": "52",
    "slug": "al-qubab",
    "name": "al-Qubab",
    "district": "Ramle",
    "lat": 31.8667,
    "lng": 34.9667
  },
  {
    "id": "53",
    "slug": "al-barriyya",
    "name": "al-Barriyya",
    "district": "Ramle",
    "lat": 31.8833,
    "lng": 34.9167
  },
  {
    "id": "54",
    "slug": "al-maghar",
    "name": "al-Maghar",
    "district": "Ramle",
    "lat": 31.9167,
    "lng": 34.8167
  },
  {
    "id": "55",
    "slug": "idnibba",
    "name": "Idnibba",
    "district": "Ramle",
    "lat": 31.7833,
    "lng": 34.9
  },
  {
    "id": "56",
    "slug": "ajanjul",
    "name": "Ajanjul",
    "district": "Ramle",
    "lat": 31.8,
    "lng": 34.9167
  },
  {
    "id": "57",
    "slug": "al-haditha",
    "name": "al-Haditha",
    "district": "Ramle",
    "lat": 31.9833,
    "lng": 34.9667
  },
  {
    "id": "58",
    "slug": "al-khayma",
    "name": "al-Khayma",
    "district": "Ramle",
    "lat": 31.7333,
    "lng": 34.85
  },
  {
    "id": "59",
    "slug": "khulda",
    "name": "Khulda",
    "district": "Ramle",
    "lat": 31.85,
    "lng": 34.8833
  },
  {
    "id": "60",
    "slug": "al-kunayyisa",
    "name": "al-Kunayyisa",
    "district": "Ramle",
    "lat": 31.75,
    "lng": 34.8667
  },
  {
    "id": "61",
    "slug": "al-mansura",
    "name": "al-Mansura",
    "district": "Ramle",
    "lat": 31.8167,
    "lng": 34.9
  },
  {
    "id": "62",
    "slug": "nabi-rubin",
    "name": "Nabi Rubin",
    "district": "Ramle",
    "lat": 31.9167,
    "lng": 34.75
  },
  {
    "id": "63",
    "slug": "qazaza",
    "name": "Qazaza",
    "district": "Ramle",
    "lat": 31.8167,
    "lng": 34.8667
  },
  {
    "id": "64",
    "slug": "sajad",
    "name": "Sajad",
    "district": "Ramle",
    "lat": 31.7833,
    "lng": 34.8667
  },
  {
    "id": "65",
    "slug": "saydun",
    "name": "Saydun",
    "district": "Ramle",
    "lat": 31.8167,
    "lng": 34.9167
  },
  {
    "id": "66",
    "slug": "shahma",
    "name": "Shahma",
    "district": "Ramle",
    "lat": 31.8333,
    "lng": 34.8333
  },
  {
    "id": "67",
    "slug": "shilta",
    "name": "Shilta",
    "district": "Ramle",
    "lat": 31.95,
    "lng": 35.0333
  },
  {
    "id": "68",
    "slug": "al-tina",
    "name": "al-Tina",
    "district": "Ramle",
    "lat": 31.7667,
    "lng": 34.85
  },
  {
    "id": "69",
    "slug": "tira-dandan",
    "name": "Tira Dandan",
    "district": "Ramle",
    "lat": 32.2667,
    "lng": 34.9833
  },
  {
    "id": "70",
    "slug": "umm-kalkha",
    "name": "Umm Kalkha",
    "district": "Ramle",
    "lat": 31.7833,
    "lng": 34.85
  },
  {
    "id": "71",
    "slug": "al-imara",
    "name": "al-Imara",
    "district": "Beersheba",
    "lat": 31.4,
    "lng": 34.6167
  },
  {
    "id": "72",
    "slug": "jammama",
    "name": "Jammama",
    "district": "Beersheba",
    "lat": 31.5333,
    "lng": 34.7
  },
  {
    "id": "73",
    "slug": "al-khalasa",
    "name": "al-Khalasa",
    "district": "Beersheba",
    "lat": 31.1,
    "lng": 34.65
  },
  {
    "id": "74",
    "slug": "al-ashrafiyya",
    "name": "al-Ashrafiyya",
    "district": "Baysan",
    "lat": 32.5,
    "lng": 35.5
  },
  {
    "id": "75",
    "slug": "al-bira",
    "name": "al-Bira",
    "district": "Baysan",
    "lat": 32.55,
    "lng": 35.45
  },
  {
    "id": "76",
    "slug": "al-fatur",
    "name": "al-Fatur",
    "district": "Baysan",
    "lat": 32.4667,
    "lng": 35.5333
  },
  {
    "id": "77",
    "slug": "farwana",
    "name": "Farwana",
    "district": "Baysan",
    "lat": 32.4833,
    "lng": 35.4833
  },
  {
    "id": "78",
    "slug": "al-ghazzawiyya",
    "name": "al-Ghazzawiyya",
    "district": "Baysan",
    "lat": 32.5333,
    "lng": 35.5167
  },
  {
    "id": "79",
    "slug": "al-hamidiyya",
    "name": "al-Hamidiyya",
    "district": "Baysan",
    "lat": 32.4667,
    "lng": 35.4667
  },
  {
    "id": "80",
    "slug": "al-hamra",
    "name": "al-Hamra",
    "district": "Baysan",
    "lat": 32.4333,
    "lng": 35.45
  },
  {
    "id": "81",
    "slug": "jabbul",
    "name": "Jabbul",
    "district": "Baysan",
    "lat": 32.45,
    "lng": 35.4833
  },
  {
    "id": "82",
    "slug": "kafra",
    "name": "Kafra",
    "district": "Baysan",
    "lat": 32.5333,
    "lng": 35.4
  },
  {
    "id": "83",
    "slug": "kawkab-al-hawa",
    "name": "Kawkab al-Hawa",
    "district": "Baysan",
    "lat": 32.6,
    "lng": 35.5333
  },
  {
    "id": "84",
    "slug": "al-khunayzir",
    "name": "al-Khunayzir",
    "district": "Baysan",
    "lat": 32.5667,
    "lng": 35.4333
  },
  {
    "id": "85",
    "slug": "masil-al-jizl",
    "name": "Masil al-Jizl",
    "district": "Baysan",
    "lat": 32.4167,
    "lng": 35.4333
  },
  {
    "id": "86",
    "slug": "al-murassas",
    "name": "al-Murassas",
    "district": "Baysan",
    "lat": 32.5667,
    "lng": 35.45
  },
  {
    "id": "87",
    "slug": "qumya",
    "name": "Qumya",
    "district": "Baysan",
    "lat": 32.55,
    "lng": 35.4167
  },
  {
    "id": "88",
    "slug": "al-sakhina",
    "name": "al-Sakhina",
    "district": "Baysan",
    "lat": 32.5,
    "lng": 35.4667
  },
  {
    "id": "89",
    "slug": "al-samiriyya",
    "name": "al-Samiriyya",
    "district": "Baysan",
    "lat": 32.5,
    "lng": 35.4167
  },
  {
    "id": "90",
    "slug": "sirin",
    "name": "Sirin",
    "district": "Baysan",
    "lat": 32.5833,
    "lng": 35.4333
  },
  {
    "id": "91",
    "slug": "tall-al-shawk",
    "name": "Tall al-Shawk",
    "district": "Baysan",
    "lat": 32.5,
    "lng": 35.4833
  },
  {
    "id": "92",
    "slug": "umm-ajra",
    "name": "Umm 'Ajra",
    "district": "Baysan",
    "lat": 32.4833,
    "lng": 35.4333
  },
  {
    "id": "93",
    "slug": "zaba",
    "name": "Zab'a",
    "district": "Baysan",
    "lat": 32.5,
    "lng": 35.4
  },
  {
    "id": "94",
    "slug": "abu-shusha",
    "name": "Abu Shusha",
    "district": "Haifa",
    "lat": 32.6,
    "lng": 35.1
  },
  {
    "id": "95",
    "slug": "abu-zurayq",
    "name": "Abu Zurayq",
    "district": "Haifa",
    "lat": 32.6333,
    "lng": 35.1167
  },
  {
    "id": "96",
    "slug": "balad-al-shaykh",
    "name": "Balad al-Shaykh",
    "district": "Haifa",
    "lat": 32.7833,
    "lng": 35.05
  },
  {
    "id": "97",
    "slug": "barrat-qisarya",
    "name": "Barrat Qisarya",
    "district": "Haifa",
    "lat": 32.5,
    "lng": 34.9167
  },
  {
    "id": "98",
    "slug": "butaymat",
    "name": "Butaymat",
    "district": "Haifa",
    "lat": 32.55,
    "lng": 35.15
  },
  {
    "id": "99",
    "slug": "hawsha",
    "name": "Hawsha",
    "district": "Haifa",
    "lat": 32.75,
    "lng": 35.15
  },
  {
    "id": "100",
    "slug": "al-jalama",
    "name": "al-Jalama",
    "district": "Haifa",
    "lat": 32.7333,
    "lng": 35.1167
  },
  {
    "id": "101",
    "slug": "al-kasayir",
    "name": "al-Kasayir",
    "district": "Haifa",
    "lat": 32.75,
    "lng": 35.15
  },
  {
    "id": "102",
    "slug": "kafr-lam",
    "name": "Kafr Lam",
    "district": "Haifa",
    "lat": 32.65,
    "lng": 34.9333
  },
  {
    "id": "103",
    "slug": "al-mansi",
    "name": "al-Mansi",
    "district": "Haifa",
    "lat": 32.6167,
    "lng": 35.1
  },
  {
    "id": "104",
    "slug": "al-mazar",
    "name": "al-Mazar",
    "district": "Haifa",
    "lat": 32.6,
    "lng": 34.9833
  },
  {
    "id": "105",
    "slug": "qannir",
    "name": "Qannir",
    "district": "Haifa",
    "lat": 32.5333,
    "lng": 35.05
  },
  {
    "id": "106",
    "slug": "qira",
    "name": "Qira",
    "district": "Haifa",
    "lat": 32.65,
    "lng": 35.1
  },
  {
    "id": "107",
    "slug": "al-rihaniyya",
    "name": "al-Rihaniyya",
    "district": "Haifa",
    "lat": 32.5833,
    "lng": 35.1333
  },
  {
    "id": "108",
    "slug": "sabbarin",
    "name": "Sabbarin",
    "district": "Haifa",
    "lat": 32.5667,
    "lng": 35.0333
  },
  {
    "id": "109",
    "slug": "al-sarafand",
    "name": "al-Sarafand",
    "district": "Haifa",
    "lat": 32.6833,
    "lng": 34.95
  },
  {
    "id": "110",
    "slug": "al-sindiyana",
    "name": "al-Sindiyana",
    "district": "Haifa",
    "lat": 32.55,
    "lng": 35.0167
  },
  {
    "id": "111",
    "slug": "umm-al-shawf",
    "name": "Umm al-Shawf",
    "district": "Haifa",
    "lat": 32.5333,
    "lng": 35.0167
  },
  {
    "id": "112",
    "slug": "umm-al-zinat",
    "name": "Umm al-Zinat",
    "district": "Haifa",
    "lat": 32.6333,
    "lng": 35.0667
  },
  {
    "id": "113",
    "slug": "waarat-al-sarris",
    "name": "Wa'arat al-Sarris",
    "district": "Haifa",
    "lat": 32.7,
    "lng": 35.0833
  },
  {
    "id": "114",
    "slug": "wadi-ara",
    "name": "Wadi Ara",
    "district": "Haifa",
    "lat": 32.5,
    "lng": 35.1
  },
  {
    "id": "115",
    "slug": "yajur",
    "name": "Yajur",
    "district": "Haifa",
    "lat": 32.7667,
    "lng": 35.0833
  },
  {
    "id": "116",
    "slug": "ajjur",
    "name": "'Ajjur",
    "district": "Hebron",
    "lat": 31.6833,
    "lng": 34.8833
  },
  {
    "id": "117",
    "slug": "barqusya",
    "name": "Barqusya",
    "district": "Hebron",
    "lat": 31.6667,
    "lng": 34.8167
  },
  {
    "id": "118",
    "slug": "bayt-jibrin",
    "name": "Bayt Jibrin",
    "district": "Hebron",
    "lat": 31.6,
    "lng": 34.9
  },
  {
    "id": "119",
    "slug": "bayt-nattif",
    "name": "Bayt Nattif",
    "district": "Hebron",
    "lat": 31.7,
    "lng": 34.9833
  },
  {
    "id": "120",
    "slug": "al-dawayima",
    "name": "al-Dawayima",
    "district": "Hebron",
    "lat": 31.55,
    "lng": 34.8667
  },
  {
    "id": "121",
    "slug": "deir-al-dubban",
    "name": "Deir al-Dubban",
    "district": "Hebron",
    "lat": 31.6667,
    "lng": 34.9
  },
  {
    "id": "122",
    "slug": "deir-nakhkhas",
    "name": "Deir Nakhkhas",
    "district": "Hebron",
    "lat": 31.6167,
    "lng": 34.9333
  },
  {
    "id": "123",
    "slug": "kidna",
    "name": "Kidna",
    "district": "Hebron",
    "lat": 31.6,
    "lng": 34.9333
  },
  {
    "id": "124",
    "slug": "mughallis",
    "name": "Mughallis",
    "district": "Hebron",
    "lat": 31.7167,
    "lng": 34.8667
  },
  {
    "id": "125",
    "slug": "al-qubayba",
    "name": "al-Qubayba",
    "district": "Hebron",
    "lat": 31.5833,
    "lng": 34.8333
  },
  {
    "id": "126",
    "slug": "rana",
    "name": "Ra'na",
    "district": "Hebron",
    "lat": 31.6,
    "lng": 34.8833
  },
  {
    "id": "127",
    "slug": "zakariyya",
    "name": "Zakariyya",
    "district": "Hebron",
    "lat": 31.7,
    "lng": 34.9333
  },
  {
    "id": "128",
    "slug": "zayta",
    "name": "Zayta",
    "district": "Hebron",
    "lat": 31.6333,
    "lng": 34.85
  },
  {
    "id": "129",
    "slug": "bayt-dajan",
    "name": "Bayt Dajan",
    "district": "Jaffa",
    "lat": 32.0167,
    "lng": 34.85
  },
  {
    "id": "130",
    "slug": "biyar-adas",
    "name": "Biyar 'Adas",
    "district": "Jaffa",
    "lat": 32.1833,
    "lng": 34.8833
  },
  {
    "id": "131",
    "slug": "fajja",
    "name": "Fajja",
    "district": "Jaffa",
    "lat": 32.0833,
    "lng": 34.9
  },
  {
    "id": "132",
    "slug": "al-haram",
    "name": "al-Haram",
    "district": "Jaffa",
    "lat": 32.1833,
    "lng": 34.8
  },
  {
    "id": "133",
    "slug": "ijlil-al-qibliyya",
    "name": "Ijlil al-Qibliyya",
    "district": "Jaffa",
    "lat": 32.1667,
    "lng": 34.8167
  },
  {
    "id": "134",
    "slug": "ijlil-al-shamaliyya",
    "name": "Ijlil al-Shamaliyya",
    "district": "Jaffa",
    "lat": 32.1833,
    "lng": 34.8167
  },
  {
    "id": "135",
    "slug": "al-jammasin-al-gharbi",
    "name": "al-Jammasin al-Gharbi",
    "district": "Jaffa",
    "lat": 32.1,
    "lng": 34.8
  },
  {
    "id": "136",
    "slug": "al-jammasin-al-sharqi",
    "name": "al-Jammasin al-Sharqi",
    "district": "Jaffa",
    "lat": 32.1,
    "lng": 34.8167
  },
  {
    "id": "137",
    "slug": "jarisha",
    "name": "Jarisha",
    "district": "Jaffa",
    "lat": 32.1,
    "lng": 34.8333
  },
  {
    "id": "138",
    "slug": "kafr-ana",
    "name": "Kafr 'Ana",
    "district": "Jaffa",
    "lat": 32,
    "lng": 34.8833
  },
  {
    "id": "139",
    "slug": "al-khayriyya",
    "name": "al-Khayriyya",
    "district": "Jaffa",
    "lat": 32.0333,
    "lng": 34.8333
  },
  {
    "id": "140",
    "slug": "al-masudiyya",
    "name": "al-Mas'udiyya",
    "district": "Jaffa",
    "lat": 32.1167,
    "lng": 34.8
  },
  {
    "id": "141",
    "slug": "al-mirr",
    "name": "al-Mirr",
    "district": "Jaffa",
    "lat": 31.9833,
    "lng": 34.85
  },
  {
    "id": "142",
    "slug": "al-muwaylih",
    "name": "al-Muwaylih",
    "district": "Jaffa",
    "lat": 32.1167,
    "lng": 34.85
  },
  {
    "id": "143",
    "slug": "rantiya",
    "name": "Rantiya",
    "district": "Jaffa",
    "lat": 32.0667,
    "lng": 34.9167
  },
  {
    "id": "144",
    "slug": "al-safiriyya",
    "name": "al-Safiriyya",
    "district": "Jaffa",
    "lat": 32,
    "lng": 34.8667
  },
  {
    "id": "145",
    "slug": "saqiya",
    "name": "Saqiya",
    "district": "Jaffa",
    "lat": 32.0333,
    "lng": 34.85
  },
  {
    "id": "146",
    "slug": "al-shaykh-muwannis",
    "name": "al-Shaykh Muwannis",
    "district": "Jaffa",
    "lat": 32.1167,
    "lng": 34.8167
  },
  {
    "id": "147",
    "slug": "al-sawalima",
    "name": "al-Sawalima",
    "district": "Jaffa",
    "lat": 32.1667,
    "lng": 34.8
  },
  {
    "id": "148",
    "slug": "ayn-al-mansi",
    "name": "Ayn al-Mansi",
    "district": "Jenin",
    "lat": 32.55,
    "lng": 35.1333
  },
  {
    "id": "149",
    "slug": "khirbat-al-jawfa",
    "name": "Khirbat al-Jawfa",
    "district": "Jenin",
    "lat": 32.4333,
    "lng": 35.4167
  },
  {
    "id": "150",
    "slug": "al-mazar",
    "name": "al-Mazar",
    "district": "Jenin",
    "lat": 32.4833,
    "lng": 35.3167
  },
  {
    "id": "151",
    "slug": "lajjun",
    "name": "Lajjun",
    "district": "Jenin",
    "lat": 32.593,
    "lng": 35.184
  },
  {
    "id": "152",
    "slug": "nurit",
    "name": "Nurit",
    "district": "Jenin",
    "lat": 32.5167,
    "lng": 35.3333
  },
  {
    "id": "153",
    "slug": "zirin",
    "name": "Zir'in",
    "district": "Jenin",
    "lat": 32.55,
    "lng": 35.3167
  },
  {
    "id": "154",
    "slug": "ayn-karim",
    "name": "'Ayn Karim",
    "district": "Jerusalem",
    "lat": 31.767,
    "lng": 35.163
  },
  {
    "id": "155",
    "slug": "bayt-mahsir",
    "name": "Bayt Mahsir",
    "district": "Jerusalem",
    "lat": 31.7944,
    "lng": 35.0875
  },
  {
    "id": "156",
    "slug": "bayt-naqquba",
    "name": "Bayt Naqquba",
    "district": "Jerusalem",
    "lat": 31.8,
    "lng": 35.1333
  },
  {
    "id": "157",
    "slug": "bayt-thul",
    "name": "Bayt Thul",
    "district": "Jerusalem",
    "lat": 31.8167,
    "lng": 35.1167
  },
  {
    "id": "158",
    "slug": "bayt-umm-al-mays",
    "name": "Bayt Umm al-Mays",
    "district": "Jerusalem",
    "lat": 31.7667,
    "lng": 35.1
  },
  {
    "id": "159",
    "slug": "dayr-amr",
    "name": "Dayr 'Amr",
    "district": "Jerusalem",
    "lat": 31.8,
    "lng": 35.1
  },
  {
    "id": "160",
    "slug": "dayr-aban",
    "name": "Dayr Aban",
    "district": "Jerusalem",
    "lat": 31.7333,
    "lng": 34.9833
  },
  {
    "id": "161",
    "slug": "dayr-al-hawa",
    "name": "Dayr al-Hawa",
    "district": "Jerusalem",
    "lat": 31.75,
    "lng": 35.05
  },
  {
    "id": "162",
    "slug": "dayr-rafat",
    "name": "Dayr Rafat",
    "district": "Jerusalem",
    "lat": 31.8167,
    "lng": 34.95
  },
  {
    "id": "163",
    "slug": "dayr-al-shaykh",
    "name": "Dayr al-Shaykh",
    "district": "Jerusalem",
    "lat": 31.7333,
    "lng": 35.0833
  },
  {
    "id": "164",
    "slug": "ishwa",
    "name": "Ishwa'",
    "district": "Jerusalem",
    "lat": 31.8,
    "lng": 35
  },
  {
    "id": "165",
    "slug": "islin",
    "name": "'Islin",
    "district": "Jerusalem",
    "lat": 31.8,
    "lng": 35.0167
  },
  {
    "id": "166",
    "slug": "jirash",
    "name": "Jirash",
    "district": "Jerusalem",
    "lat": 31.7,
    "lng": 34.95
  },
  {
    "id": "167",
    "slug": "al-jura",
    "name": "al-Jura",
    "district": "Jerusalem",
    "lat": 31.7667,
    "lng": 35.1833
  },
  {
    "id": "168",
    "slug": "kasla",
    "name": "Kasla",
    "district": "Jerusalem",
    "lat": 31.7942,
    "lng": 35.1022
  },
  {
    "id": "169",
    "slug": "khirbat-al-lawz",
    "name": "Khirbat al-Lawz",
    "district": "Jerusalem",
    "lat": 31.7833,
    "lng": 35.1167
  },
  {
    "id": "170",
    "slug": "khirbat-al-tannur",
    "name": "Khirbat al-Tannur",
    "district": "Jerusalem",
    "lat": 31.6833,
    "lng": 35.1167
  },
  {
    "id": "171",
    "slug": "khirbat-al-umur",
    "name": "Khirbat al-'Umur",
    "district": "Jerusalem",
    "lat": 31.8167,
    "lng": 35.0833
  },
  {
    "id": "172",
    "slug": "lifta",
    "name": "Lifta",
    "district": "Jerusalem",
    "lat": 31.8,
    "lng": 35.195
  },
  {
    "id": "173",
    "slug": "al-maliha",
    "name": "al-Maliha",
    "district": "Jerusalem",
    "lat": 31.7572,
    "lng": 35.1779
  },
  {
    "id": "174",
    "slug": "nitaf",
    "name": "Nitaf",
    "district": "Jerusalem",
    "lat": 31.8333,
    "lng": 35.1
  },
  {
    "id": "175",
    "slug": "al-qabu",
    "name": "al-Qabu",
    "district": "Jerusalem",
    "lat": 31.7167,
    "lng": 35.0667
  },
  {
    "id": "176",
    "slug": "al-qastal",
    "name": "al-Qastal",
    "district": "Jerusalem",
    "lat": 31.7956,
    "lng": 35.1442
  },
  {
    "id": "177",
    "slug": "qalunya",
    "name": "Qalunya",
    "district": "Jerusalem",
    "lat": 31.7969,
    "lng": 35.1628
  },
  {
    "id": "178",
    "slug": "al-walaja",
    "name": "al-Walaja",
    "district": "Jerusalem",
    "lat": 31.7333,
    "lng": 35.15
  },
  {
    "id": "179",
    "slug": "saris",
    "name": "Saris",
    "district": "Jerusalem",
    "lat": 31.7981,
    "lng": 35.0739
  },
  {
    "id": "180",
    "slug": "sataf",
    "name": "Sataf",
    "district": "Jerusalem",
    "lat": 31.7833,
    "lng": 35.1333
  },
  {
    "id": "181",
    "slug": "suba",
    "name": "Suba",
    "district": "Jerusalem",
    "lat": 31.785,
    "lng": 35.1256
  },
  {
    "id": "182",
    "slug": "abu-al-fadl",
    "name": "Abu al-Fadl",
    "district": "Ramle",
    "lat": 31.9,
    "lng": 34.8833
  },
  {
    "id": "183",
    "slug": "barfiliya",
    "name": "Barfiliya",
    "district": "Ramle",
    "lat": 31.9167,
    "lng": 34.9833
  },
  {
    "id": "184",
    "slug": "al-barriyya",
    "name": "al-Barriyya",
    "district": "Ramle",
    "lat": 31.8833,
    "lng": 34.9167
  },
  {
    "id": "185",
    "slug": "bashshit",
    "name": "Bashshit",
    "district": "Ramle",
    "lat": 31.85,
    "lng": 34.7833
  },
  {
    "id": "186",
    "slug": "bayt-nabala",
    "name": "Bayt Nabala",
    "district": "Ramle",
    "lat": 31.9833,
    "lng": 34.95
  },
  {
    "id": "187",
    "slug": "bayt-shanna",
    "name": "Bayt Shanna",
    "district": "Ramle",
    "lat": 31.8667,
    "lng": 35
  },
  {
    "id": "188",
    "slug": "bayt-susin",
    "name": "Bayt Susin",
    "district": "Ramle",
    "lat": 31.8333,
    "lng": 34.9667
  },
  {
    "id": "189",
    "slug": "bir-main",
    "name": "Bir Ma'in",
    "district": "Ramle",
    "lat": 31.9,
    "lng": 34.9833
  },
  {
    "id": "190",
    "slug": "burj",
    "name": "Burj",
    "district": "Ramle",
    "lat": 31.9167,
    "lng": 35
  },
  {
    "id": "191",
    "slug": "al-burj",
    "name": "al-Burj",
    "district": "Hebron",
    "lat": 31.55,
    "lng": 34.9
  },
  {
    "id": "192",
    "slug": "daniyal",
    "name": "Daniyal",
    "district": "Ramle",
    "lat": 31.9333,
    "lng": 34.9167
  },
  {
    "id": "193",
    "slug": "abu-shusha",
    "name": "Abu Shusha",
    "district": "Ramle",
    "lat": 31.8667,
    "lng": 34.95
  },
  {
    "id": "194",
    "slug": "ajanjul",
    "name": "Ajanjul",
    "district": "Ramle",
    "lat": 31.8,
    "lng": 34.9167
  },
  {
    "id": "195",
    "slug": "abisiyya",
    "name": "'Abisiyya",
    "district": "Safad",
    "lat": 33.0833,
    "lng": 35.6167
  },
  {
    "id": "196",
    "slug": "akbara",
    "name": "Akbara",
    "district": "Safad",
    "lat": 32.9667,
    "lng": 35.5
  },
  {
    "id": "197",
    "slug": "ammuqa",
    "name": "'Ammuqa",
    "district": "Safad",
    "lat": 33,
    "lng": 35.5167
  },
  {
    "id": "198",
    "slug": "al-awayiziyya",
    "name": "al-'Awayiziyya",
    "district": "Safad",
    "lat": 33.1,
    "lng": 35.6333
  },
  {
    "id": "199",
    "slug": "ayn-al-zaytun",
    "name": "Ayn al-Zaytun",
    "district": "Safad",
    "lat": 32.9833,
    "lng": 35.5
  },
  {
    "id": "200",
    "slug": "al-butayha",
    "name": "al-Butayha",
    "district": "Safad",
    "lat": 32.9,
    "lng": 35.6333
  },
  {
    "id": "201",
    "slug": "al-buwayziyya",
    "name": "al-Buwayziyya",
    "district": "Safad",
    "lat": 33.15,
    "lng": 35.6
  },
  {
    "id": "202",
    "slug": "dallata",
    "name": "Dallata",
    "district": "Safad",
    "lat": 33.0167,
    "lng": 35.5
  },
  {
    "id": "203",
    "slug": "al-dawwara",
    "name": "al-Dawwara",
    "district": "Safad",
    "lat": 33.1,
    "lng": 35.6
  },
  {
    "id": "204",
    "slug": "dayshum",
    "name": "Dayshum",
    "district": "Safad",
    "lat": 33.0833,
    "lng": 35.4667
  },
  {
    "id": "205",
    "slug": "al-dirbashiyya",
    "name": "al-Dirbashiyya",
    "district": "Safad",
    "lat": 33.1333,
    "lng": 35.6167
  },
  {
    "id": "206",
    "slug": "al-dirdara",
    "name": "al-Dirdara",
    "district": "Safad",
    "lat": 33.0833,
    "lng": 35.65
  },
  {
    "id": "207",
    "slug": "fara",
    "name": "Fara",
    "district": "Safad",
    "lat": 33.0167,
    "lng": 35.5333
  },
  {
    "id": "208",
    "slug": "firim",
    "name": "Fir'im",
    "district": "Safad",
    "lat": 33,
    "lng": 35.5
  },
  {
    "id": "209",
    "slug": "ghuraba",
    "name": "Ghuraba",
    "district": "Safad",
    "lat": 33.0167,
    "lng": 35.6
  },
  {
    "id": "210",
    "slug": "ghubatiyya",
    "name": "Ghubatiyya",
    "district": "Safad",
    "lat": 33.15,
    "lng": 35.6833
  },
  {
    "id": "211",
    "slug": "harrawi",
    "name": "Harrawi",
    "district": "Safad",
    "lat": 33.1667,
    "lng": 35.6
  },
  {
    "id": "212",
    "slug": "hunin",
    "name": "Hunin",
    "district": "Safad",
    "lat": 33.2167,
    "lng": 35.5333
  },
  {
    "id": "213",
    "slug": "jahula",
    "name": "Jahula",
    "district": "Safad",
    "lat": 33.05,
    "lng": 35.5833
  },
  {
    "id": "214",
    "slug": "al-jauna",
    "name": "al-Ja'una",
    "district": "Safad",
    "lat": 32.9667,
    "lng": 35.5333
  },
  {
    "id": "215",
    "slug": "jubb-yusuf",
    "name": "Jubb Yusuf",
    "district": "Safad",
    "lat": 32.9333,
    "lng": 35.5667
  },
  {
    "id": "216",
    "slug": "kafr-birim",
    "name": "Kafr Bir'im",
    "district": "Safad",
    "lat": 33.05,
    "lng": 35.4167
  },
  {
    "id": "217",
    "slug": "al-khalisa",
    "name": "al-Khalisa",
    "district": "Safad",
    "lat": 33.2,
    "lng": 35.6167
  },
  {
    "id": "218",
    "slug": "khan-al-duwayr",
    "name": "Khan al-Duwayr",
    "district": "Safad",
    "lat": 33.1833,
    "lng": 35.5833
  },
  {
    "id": "219",
    "slug": "khirbat-al-muntar",
    "name": "Khirbat al-Muntar",
    "district": "Safad",
    "lat": 33.1167,
    "lng": 35.6
  },
  {
    "id": "220",
    "slug": "khirbat-karraza",
    "name": "Khirbat Karraza",
    "district": "Safad",
    "lat": 32.9333,
    "lng": 35.5833
  },
  {
    "id": "221",
    "slug": "khiyam-al-walid",
    "name": "Khiyam al-Walid",
    "district": "Safad",
    "lat": 33.1667,
    "lng": 35.6333
  },
  {
    "id": "222",
    "slug": "kirad-al-baqqara",
    "name": "Kirad al-Baqqara",
    "district": "Safad",
    "lat": 32.9833,
    "lng": 35.5833
  },
  {
    "id": "223",
    "slug": "kirad-al-ghannama",
    "name": "Kirad al-Ghannama",
    "district": "Safad",
    "lat": 32.9833,
    "lng": 35.6
  },
  {
    "id": "224",
    "slug": "lazzaza",
    "name": "Lazzaza",
    "district": "Safad",
    "lat": 33.2167,
    "lng": 35.6333
  },
  {
    "id": "225",
    "slug": "madahil",
    "name": "Madahil",
    "district": "Safad",
    "lat": 33.1,
    "lng": 35.5333
  },
  {
    "id": "226",
    "slug": "al-malikiyya",
    "name": "al-Malikiyya",
    "district": "Safad",
    "lat": 33.1,
    "lng": 35.45
  },
  {
    "id": "227",
    "slug": "al-manshiyya",
    "name": "al-Manshiyya",
    "district": "Safad",
    "lat": 33.0167,
    "lng": 35.5833
  },
  {
    "id": "228",
    "slug": "al-mansura",
    "name": "al-Mansura",
    "district": "Safad",
    "lat": 33,
    "lng": 35.3333
  },
  {
    "id": "229",
    "slug": "marus",
    "name": "Marus",
    "district": "Safad",
    "lat": 32.9833,
    "lng": 35.55
  },
  {
    "id": "230",
    "slug": "mays-al-jabal",
    "name": "Mays al-Jabal",
    "district": "Safad",
    "lat": 33.15,
    "lng": 35.5
  },
  {
    "id": "231",
    "slug": "mughr-al-khayt",
    "name": "Mughr al-Khayt",
    "district": "Safad",
    "lat": 32.9667,
    "lng": 35.5833
  },
  {
    "id": "232",
    "slug": "al-naima",
    "name": "al-Na'ima",
    "district": "Safad",
    "lat": 33.1333,
    "lng": 35.6333
  },
  {
    "id": "233",
    "slug": "qabbaa",
    "name": "Qabba'a",
    "district": "Safad",
    "lat": 33.0333,
    "lng": 35.4833
  },
  {
    "id": "234",
    "slug": "qadas",
    "name": "Qadas",
    "district": "Safad",
    "lat": 33.1167,
    "lng": 35.4833
  },
  {
    "id": "235",
    "slug": "qaddita",
    "name": "Qaddita",
    "district": "Safad",
    "lat": 33,
    "lng": 35.45
  },
  {
    "id": "236",
    "slug": "al-ras-al-ahmar",
    "name": "al-Ras al-Ahmar",
    "district": "Safad",
    "lat": 32.9667,
    "lng": 35.4667
  },
  {
    "id": "237",
    "slug": "sabalan",
    "name": "Sabalan",
    "district": "Safad",
    "lat": 32.9667,
    "lng": 35.35
  },
  {
    "id": "238",
    "slug": "safsaf",
    "name": "Safsaf",
    "district": "Safad",
    "lat": 33.0167,
    "lng": 35.45
  },
  {
    "id": "239",
    "slug": "saliha",
    "name": "Saliha",
    "district": "Safad",
    "lat": 33.0667,
    "lng": 35.4167
  },
  {
    "id": "240",
    "slug": "al-salihiyya",
    "name": "al-Salihiyya",
    "district": "Safad",
    "lat": 33.15,
    "lng": 35.6667
  },
  {
    "id": "241",
    "slug": "al-sammui",
    "name": "al-Sammu'i",
    "district": "Safad",
    "lat": 33.05,
    "lng": 35.4833
  },
  {
    "id": "242",
    "slug": "al-sanbariyya",
    "name": "al-Sanbariyya",
    "district": "Safad",
    "lat": 33.1833,
    "lng": 35.65
  },
  {
    "id": "243",
    "slug": "sasa",
    "name": "Sa'sa'",
    "district": "Safad",
    "lat": 33.0333,
    "lng": 35.3833
  },
  {
    "id": "244",
    "slug": "al-shawka-al-tahta",
    "name": "al-Shawka al-Tahta",
    "district": "Safad",
    "lat": 32.9667,
    "lng": 35.5667
  },
  {
    "id": "245",
    "slug": "al-abidiyya",
    "name": "al-'Abidiyya",
    "district": "Tiberias",
    "lat": 32.7667,
    "lng": 35.5333
  },
  {
    "id": "246",
    "slug": "awlam",
    "name": "'Awlam",
    "district": "Tiberias",
    "lat": 32.65,
    "lng": 35.4
  },
  {
    "id": "247",
    "slug": "ghuwayr-abu-shusha",
    "name": "Ghuwayr Abu Shusha",
    "district": "Tiberias",
    "lat": 32.85,
    "lng": 35.5167
  },
  {
    "id": "248",
    "slug": "haddatha",
    "name": "Haddatha",
    "district": "Tiberias",
    "lat": 32.65,
    "lng": 35.4333
  },
  {
    "id": "249",
    "slug": "al-hamma",
    "name": "al-Hamma",
    "district": "Tiberias",
    "lat": 32.6833,
    "lng": 35.6667
  },
  {
    "id": "250",
    "slug": "al-majdal",
    "name": "al-Majdal",
    "district": "Tiberias",
    "lat": 32.8333,
    "lng": 35.5167
  },
  {
    "id": "251",
    "slug": "al-manara",
    "name": "al-Manara",
    "district": "Tiberias",
    "lat": 32.7,
    "lng": 35.4333
  },
  {
    "id": "252",
    "slug": "al-manshiyya",
    "name": "al-Manshiyya",
    "district": "Tiberias",
    "lat": 32.7167,
    "lng": 35.5333
  },
  {
    "id": "253",
    "slug": "al-mansura",
    "name": "al-Mansura",
    "district": "Tiberias",
    "lat": 32.7,
    "lng": 35.55
  },
  {
    "id": "254",
    "slug": "nasir-al-din",
    "name": "Nasir al-Din",
    "district": "Tiberias",
    "lat": 32.7667,
    "lng": 35.5
  },
  {
    "id": "255",
    "slug": "nimrin",
    "name": "Nimrin",
    "district": "Tiberias",
    "lat": 32.7,
    "lng": 35.4833
  },
  {
    "id": "256",
    "slug": "al-nuqayb",
    "name": "al-Nuqayb",
    "district": "Tiberias",
    "lat": 32.8167,
    "lng": 35.6
  },
  {
    "id": "257",
    "slug": "samakh",
    "name": "Samakh",
    "district": "Tiberias",
    "lat": 32.7,
    "lng": 35.5833
  },
  {
    "id": "258",
    "slug": "al-samakiyya",
    "name": "al-Samakiyya",
    "district": "Tiberias",
    "lat": 32.9,
    "lng": 35.5667
  },
  {
    "id": "259",
    "slug": "al-samra",
    "name": "al-Samra",
    "district": "Tiberias",
    "lat": 32.7167,
    "lng": 35.6167
  },
  {
    "id": "260",
    "slug": "al-shajara",
    "name": "al-Shajara",
    "district": "Tiberias",
    "lat": 32.7,
    "lng": 35.4
  },
  {
    "id": "261",
    "slug": "tabariyyah-tiberias",
    "name": "Tabariyyah (Tiberias)",
    "district": "Tiberias",
    "lat": 32.7833,
    "lng": 35.5333
  },
  {
    "id": "262",
    "slug": "al-ubaydiyya",
    "name": "al-'Ubaydiyya",
    "district": "Tiberias",
    "lat": 32.7167,
    "lng": 35.55
  },
  {
    "id": "263",
    "slug": "al-wara-al-sawda",
    "name": "al-Wa'ra al-Sawda'",
    "district": "Tiberias",
    "lat": 32.9167,
    "lng": 35.5833
  },
  {
    "id": "264",
    "slug": "bayyarat-hannun",
    "name": "Bayyarat Hannun",
    "district": "Tulkarm",
    "lat": 32.3333,
    "lng": 34.9
  },
  {
    "id": "265",
    "slug": "fardisya",
    "name": "Fardisya",
    "district": "Tulkarm",
    "lat": 32.2833,
    "lng": 34.9333
  },
  {
    "id": "266",
    "slug": "ghabat-kafr-sur",
    "name": "Ghabat Kafr Sur",
    "district": "Tulkarm",
    "lat": 32.2667,
    "lng": 34.95
  },
  {
    "id": "267",
    "slug": "jaljuliya",
    "name": "Jaljuliya",
    "district": "Tulkarm",
    "lat": 32.15,
    "lng": 34.95
  },
  {
    "id": "268",
    "slug": "kafr-saba",
    "name": "Kafr Saba",
    "district": "Tulkarm",
    "lat": 32.1667,
    "lng": 34.9333
  },
  {
    "id": "269",
    "slug": "al-majdal",
    "name": "al-Majdal",
    "district": "Gaza",
    "lat": 31.6667,
    "lng": 34.6
  },
  {
    "id": "270",
    "slug": "al-masudiyya",
    "name": "al-Mas'udiyya",
    "district": "Tulkarm",
    "lat": 32.2167,
    "lng": 34.9
  },
  {
    "id": "271",
    "slug": "misir",
    "name": "Misir",
    "district": "Tulkarm",
    "lat": 32.5833,
    "lng": 35.1833
  },
  {
    "id": "272",
    "slug": "qaqun",
    "name": "Qaqun",
    "district": "Tulkarm",
    "lat": 32.3833,
    "lng": 34.9833
  },
  {
    "id": "273",
    "slug": "raml-zayta",
    "name": "Raml Zayta",
    "district": "Tulkarm",
    "lat": 32.4167,
    "lng": 34.9167
  },
  {
    "id": "274",
    "slug": "tabrat",
    "name": "Tabrat",
    "district": "Tiberias",
    "lat": 32.9333,
    "lng": 35.5333
  },
  {
    "id": "275",
    "slug": "umm-khalid",
    "name": "Umm Khalid",
    "district": "Tulkarm",
    "lat": 32.2833,
    "lng": 34.8833
  },
  {
    "id": "276",
    "slug": "wadi-al-hawarith-north",
    "name": "Wadi al-Hawarith (North)",
    "district": "Tulkarm",
    "lat": 32.4,
    "lng": 34.9
  },
  {
    "id": "277",
    "slug": "wadi-al-hawarith-south",
    "name": "Wadi al-Hawarith (South)",
    "district": "Tulkarm",
    "lat": 32.3833,
    "lng": 34.9
  },
  {
    "id": "278",
    "slug": "amqa",
    "name": "'Amqa",
    "district": "Acre",
    "lat": 32.95,
    "lng": 35.1667
  },
  {
    "id": "279",
    "slug": "arab-al-samniyya",
    "name": "'Arab al-Samniyya",
    "district": "Acre",
    "lat": 33.05,
    "lng": 35.2
  },
  {
    "id": "280",
    "slug": "al-birwa",
    "name": "al-Birwa",
    "district": "Acre",
    "lat": 32.9055,
    "lng": 35.1787
  },
  {
    "id": "281",
    "slug": "al-damun",
    "name": "al-Damun",
    "district": "Acre",
    "lat": 32.8768,
    "lng": 35.1823
  },
  {
    "id": "282",
    "slug": "dayr-al-qassi",
    "name": "Dayr al-Qassi",
    "district": "Acre",
    "lat": 33.0333,
    "lng": 35.3167
  },
  {
    "id": "283",
    "slug": "al-ghabisiyya",
    "name": "al-Ghabisiyya",
    "district": "Acre",
    "lat": 32.9833,
    "lng": 35.15
  },
  {
    "id": "284",
    "slug": "iqrit",
    "name": "Iqrit",
    "district": "Acre",
    "lat": 33.0833,
    "lng": 35.2667
  },
  {
    "id": "285",
    "slug": "khirbat-iribbin",
    "name": "Khirbat Iribbin",
    "district": "Acre",
    "lat": 33.0667,
    "lng": 35.2667
  },
  {
    "id": "286",
    "slug": "khirbat-jiddin",
    "name": "Khirbat Jiddin",
    "district": "Acre",
    "lat": 33.0167,
    "lng": 35.25
  },
  {
    "id": "287",
    "slug": "al-kabri",
    "name": "al-Kabri",
    "district": "Acre",
    "lat": 33.0167,
    "lng": 35.1333
  },
  {
    "id": "288",
    "slug": "kuwaykat",
    "name": "Kuwaykat",
    "district": "Acre",
    "lat": 32.95,
    "lng": 35.15
  },
  {
    "id": "289",
    "slug": "al-manshiyya",
    "name": "al-Manshiyya",
    "district": "Acre",
    "lat": 32.9333,
    "lng": 35.1
  },
  {
    "id": "290",
    "slug": "al-mansura",
    "name": "al-Mansura",
    "district": "Acre",
    "lat": 33.0333,
    "lng": 35.2833
  },
  {
    "id": "291",
    "slug": "miar",
    "name": "Mi'ar",
    "district": "Acre",
    "lat": 32.8667,
    "lng": 35.25
  },
  {
    "id": "292",
    "slug": "al-nabi-rubin",
    "name": "al-Nabi Rubin",
    "district": "Acre",
    "lat": 33.0667,
    "lng": 35.3333
  },
  {
    "id": "293",
    "slug": "al-nahr",
    "name": "al-Nahr",
    "district": "Acre",
    "lat": 33.0167,
    "lng": 35.1333
  },
  {
    "id": "294",
    "slug": "al-ruways",
    "name": "al-Ruways",
    "district": "Acre",
    "lat": 32.8833,
    "lng": 35.1833
  },
  {
    "id": "295",
    "slug": "al-sumayriyya",
    "name": "al-Sumayriyya",
    "district": "Acre",
    "lat": 32.9723,
    "lng": 35.0927
  },
  {
    "id": "296",
    "slug": "suruh",
    "name": "Suruh",
    "district": "Acre",
    "lat": 33.0667,
    "lng": 35.3
  },
  {
    "id": "297",
    "slug": "al-tall",
    "name": "al-Tall",
    "district": "Acre",
    "lat": 33.0167,
    "lng": 35.1333
  },
  {
    "id": "298",
    "slug": "tarshiha",
    "name": "Tarshiha",
    "district": "Acre",
    "lat": 33,
    "lng": 35.2833
  },
  {
    "id": "299",
    "slug": "umm-al-faraj",
    "name": "Umm al-Faraj",
    "district": "Acre",
    "lat": 32.9833,
    "lng": 35.1167
  },
  {
    "id": "300",
    "slug": "az-zeeb",
    "name": "Az-Zeeb",
    "district": "Acre",
    "lat": 33,
    "lng": 35.1
  },
  {
    "id": "301",
    "slug": "al-batani-al-gharbi",
    "name": "al-Batani al-Gharbi",
    "district": "Gaza",
    "lat": 31.7333,
    "lng": 34.7167
  },
  {
    "id": "302",
    "slug": "al-batani-al-sharqi",
    "name": "al-Batani al-Sharqi",
    "district": "Gaza",
    "lat": 31.7333,
    "lng": 34.7333
  },
  {
    "id": "303",
    "slug": "barbarah",
    "name": "Barbarah",
    "district": "Gaza",
    "lat": 31.6,
    "lng": 34.5667
  },
  {
    "id": "304",
    "slug": "barqa",
    "name": "Barqa",
    "district": "Gaza",
    "lat": 31.65,
    "lng": 34.6667
  },
  {
    "id": "305",
    "slug": "bayt-affa",
    "name": "Bayt 'Affa",
    "district": "Gaza",
    "lat": 31.6333,
    "lng": 34.7167
  },
  {
    "id": "306",
    "slug": "bayt-daras",
    "name": "Bayt Daras",
    "district": "Gaza",
    "lat": 31.7167,
    "lng": 34.7
  },
  {
    "id": "307",
    "slug": "bayt-jirja",
    "name": "Bayt Jirja",
    "district": "Gaza",
    "lat": 31.5833,
    "lng": 34.6
  },
  {
    "id": "308",
    "slug": "bayt-tima",
    "name": "Bayt Tima",
    "district": "Gaza",
    "lat": 31.6,
    "lng": 34.7
  },
  {
    "id": "209",
    "slug": "bilin",
    "name": "Bil'in",
    "district": "Gaza",
    "lat": 31.7167,
    "lng": 34.8167
  },
  {
    "id": "310",
    "slug": "burayr",
    "name": "Burayr",
    "district": "Gaza",
    "lat": 31.5333,
    "lng": 34.6333
  },
  {
    "id": "311",
    "slug": "dayr-sunayd",
    "name": "Dayr Sunayd",
    "district": "Gaza",
    "lat": 31.5833,
    "lng": 34.55
  },
  {
    "id": "312",
    "slug": "dimra",
    "name": "Dimra",
    "district": "Gaza",
    "lat": 31.5667,
    "lng": 34.5667
  },
  {
    "id": "313",
    "slug": "al-faluja",
    "name": "al-Faluja",
    "district": "Gaza",
    "lat": 31.6247,
    "lng": 34.7478
  },
  {
    "id": "314",
    "slug": "hamama",
    "name": "Hamama",
    "district": "Gaza",
    "lat": 31.6833,
    "lng": 34.5833
  },
  {
    "id": "315",
    "slug": "hatta",
    "name": "Hatta",
    "district": "Gaza",
    "lat": 31.6333,
    "lng": 34.7333
  },
  {
    "id": "316",
    "slug": "hiribya",
    "name": "Hiribya",
    "district": "Gaza",
    "lat": 31.5667,
    "lng": 34.5333
  },
  {
    "id": "317",
    "slug": "huj",
    "name": "Huj",
    "district": "Gaza",
    "lat": 31.5167,
    "lng": 34.6
  },
  {
    "id": "318",
    "slug": "hulayqat",
    "name": "Hulayqat",
    "district": "Gaza",
    "lat": 31.6,
    "lng": 34.6833
  },
  {
    "id": "319",
    "slug": "ibdis",
    "name": "'Ibdis",
    "district": "Gaza",
    "lat": 31.6333,
    "lng": 34.7
  },
  {
    "id": "320",
    "slug": "iraq-al-manshiyya",
    "name": "Iraq al-Manshiyya",
    "district": "Gaza",
    "lat": 31.6167,
    "lng": 34.7833
  },
  {
    "id": "321",
    "slug": "iraq-suwaydan",
    "name": "Iraq Suwaydan",
    "district": "Gaza",
    "lat": 31.6486,
    "lng": 34.6928
  },
  {
    "id": "322",
    "slug": "isdud",
    "name": "Isdud",
    "district": "Gaza",
    "lat": 31.7536,
    "lng": 34.6617
  },
  {
    "id": "323",
    "slug": "al-jaladiyya",
    "name": "al-Jaladiyya",
    "district": "Gaza",
    "lat": 31.6667,
    "lng": 34.7333
  },
  {
    "id": "324",
    "slug": "julis",
    "name": "Julis",
    "district": "Gaza",
    "lat": 31.6833,
    "lng": 34.65
  },
  {
    "id": "325",
    "slug": "al-jiyya",
    "name": "al-Jiyya",
    "district": "Gaza",
    "lat": 31.6333,
    "lng": 34.6167
  },
  {
    "id": "326",
    "slug": "al-jura",
    "name": "al-Jura",
    "district": "Gaza",
    "lat": 31.6833,
    "lng": 34.5833
  },
  {
    "id": "327",
    "slug": "julis",
    "name": "Julis",
    "district": "Gaza",
    "lat": 31.6833,
    "lng": 34.65
  },
  {
    "id": "328",
    "slug": "al-jiyya",
    "name": "al-Jiyya",
    "district": "Gaza",
    "lat": 31.6333,
    "lng": 34.6167
  },
  {
    "id": "329",
    "slug": "kawkaba",
    "name": "Kawkaba",
    "district": "Gaza",
    "lat": 31.6167,
    "lng": 34.6667
  },
  {
    "id": "330",
    "slug": "al-khisas",
    "name": "al-Khisas",
    "district": "Safad",
    "lat": 33.2,
    "lng": 35.65
  },
  {
    "id": "331",
    "slug": "al-masmiyya-al-kabira",
    "name": "al-Masmiyya al-Kabira",
    "district": "Gaza",
    "lat": 31.7575,
    "lng": 34.7847
  },
  {
    "id": "332",
    "slug": "al-masmiyya-al-saghira",
    "name": "al-Masmiyya al-Saghira",
    "district": "Gaza",
    "lat": 31.7667,
    "lng": 34.8
  },
  {
    "id": "333",
    "slug": "al-muharraqa",
    "name": "al-Muharraqa",
    "district": "Gaza",
    "lat": 31.4833,
    "lng": 34.5667
  },
  {
    "id": "334",
    "slug": "najd",
    "name": "Najd",
    "district": "Gaza",
    "lat": 31.55,
    "lng": 34.6167
  },
  {
    "id": "335",
    "slug": "niilya",
    "name": "Ni'ilya",
    "district": "Gaza",
    "lat": 31.65,
    "lng": 34.5833
  },
  {
    "id": "336",
    "slug": "qastina",
    "name": "Qastina",
    "district": "Gaza",
    "lat": 31.75,
    "lng": 34.75
  },
  {
    "id": "337",
    "slug": "sawafir-al-gharbiyya",
    "name": "Sawafir al-Gharbiyya",
    "district": "Gaza",
    "lat": 31.7333,
    "lng": 34.7
  },
  {
    "id": "338",
    "slug": "sawafir-al-shamaliyya",
    "name": "Sawafir al-Shamaliyya",
    "district": "Gaza",
    "lat": 31.75,
    "lng": 34.7167
  },
  {
    "id": "339",
    "slug": "sawafir-al-sharqiyya",
    "name": "Sawafir al-Sharqiyya",
    "district": "Gaza",
    "lat": 31.7333,
    "lng": 34.7167
  },
  {
    "id": "340",
    "slug": "summayl",
    "name": "Summayl",
    "district": "Gaza",
    "lat": 31.6333,
    "lng": 34.7667
  },
  {
    "id": "341",
    "slug": "tall-al-turmus",
    "name": "Tall al-Turmus",
    "district": "Gaza",
    "lat": 31.7167,
    "lng": 34.7667
  },
  {
    "id": "342",
    "slug": "yasur",
    "name": "Yasur",
    "district": "Gaza",
    "lat": 31.7833,
    "lng": 34.7
  },
  {
    "id": "343",
    "slug": "al-jalil-khirbat",
    "name": "al-Jalil, Khirbat",
    "district": "Nazareth",
    "lat": 32.7333,
    "lng": 35.2167
  },
  {
    "id": "344",
    "slug": "indur",
    "name": "Indur",
    "district": "Nazareth",
    "lat": 32.65,
    "lng": 35.35
  },
  {
    "id": "345",
    "slug": "malul",
    "name": "Ma'lul",
    "district": "Nazareth",
    "lat": 32.7,
    "lng": 35.2333
  },
  {
    "id": "346",
    "slug": "al-mujaydil",
    "name": "al-Mujaydil",
    "district": "Nazareth",
    "lat": 32.7167,
    "lng": 35.25
  },
  {
    "id": "347",
    "slug": "saffuriyya",
    "name": "Saffuriyya",
    "district": "Nazareth",
    "lat": 32.75,
    "lng": 35.2833
  },
  {
    "id": "348",
    "slug": "al-haditha",
    "name": "al-Haditha",
    "district": "Ramle",
    "lat": 31.9833,
    "lng": 34.9667
  },
  {
    "id": "349",
    "slug": "al-naani",
    "name": "al-Na'ani",
    "district": "Ramle",
    "lat": 31.8833,
    "lng": 34.8833
  },
  {
    "id": "350",
    "slug": "salbit",
    "name": "Salbit",
    "district": "Ramle",
    "lat": 31.8667,
    "lng": 35.0167
  },
  {
    "id": "351",
    "slug": "al-tina",
    "name": "al-Tina",
    "district": "Ramle",
    "lat": 31.7667,
    "lng": 34.85
  },
  {
    "id": "352",
    "slug": "innaba",
    "name": "'Innaba",
    "district": "Ramle",
    "lat": 31.9,
    "lng": 34.95
  },
  {
    "id": "353",
    "slug": "jilya",
    "name": "Jilya",
    "district": "Ramle",
    "lat": 31.7833,
    "lng": 34.8167
  },
  {
    "id": "354",
    "slug": "kharruba",
    "name": "Kharruba",
    "district": "Ramle",
    "lat": 31.8333,
    "lng": 34.9
  },
  {
    "id": "355",
    "slug": "majdal-yaba",
    "name": "Majdal Yaba",
    "district": "Ramle",
    "lat": 32.1,
    "lng": 34.9667
  },
  {
    "id": "356",
    "slug": "al-mukhayzin",
    "name": "al-Mukhayzin",
    "district": "Ramle",
    "lat": 31.8167,
    "lng": 34.8333
  },
  {
    "id": "357",
    "slug": "sarafand-al-amar",
    "name": "Sarafand al-'Amar",
    "district": "Ramle",
    "lat": 31.95,
    "lng": 34.8667
  },
  {
    "id": "358",
    "slug": "sarafand-al-kharab",
    "name": "Sarafand al-Kharab",
    "district": "Ramle",
    "lat": 31.9333,
    "lng": 34.8167
  },
  {
    "id": "359",
    "slug": "al-tira",
    "name": "al-Tira",
    "district": "Ramle",
    "lat": 32.2333,
    "lng": 35.0333
  },
  {
    "id": "360",
    "slug": "taytaba",
    "name": "Taytaba",
    "district": "Safad",
    "lat": 33.0167,
    "lng": 35.4667
  },
  {
    "id": "361",
    "slug": "al-talawiyya",
    "name": "al-Talawiyya",
    "district": "Safad",
    "lat": 33.15,
    "lng": 35.6167
  },
  {
    "id": "362",
    "slug": "al-ulmaniyya",
    "name": "al-'Ulmaniyya",
    "district": "Safad",
    "lat": 32.95,
    "lng": 35.6
  },
  {
    "id": "363",
    "slug": "al-wayziyya",
    "name": "al-Wayziyya",
    "district": "Safad",
    "lat": 33.05,
    "lng": 35.6333
  },
  {
    "id": "364",
    "slug": "yarda",
    "name": "Yarda",
    "district": "Safad",
    "lat": 33.0167,
    "lng": 35.5833
  },
  {
    "id": "365",
    "slug": "al-zahiriyya-al-tahta",
    "name": "al-Zahiriyya al-Tahta",
    "district": "Safad",
    "lat": 32.9667,
    "lng": 35.55
  },
  {
    "id": "366",
    "slug": "al-zawiya",
    "name": "al-Zawiya",
    "district": "Safad",
    "lat": 33.1,
    "lng": 35.6167
  },
  {
    "id": "367",
    "slug": "al-zuhayriyya",
    "name": "al-Zuhayriyya",
    "district": "Safad",
    "lat": 33.1,
    "lng": 35.6333
  },
  {
    "id": "368",
    "slug": "al-zanqariyya",
    "name": "al-Zanqariyya",
    "district": "Safad",
    "lat": 32.9333,
    "lng": 35.5667
  },
  {
    "id": "369",
    "slug": "al-zahiriyya",
    "name": "al-Zahiriyya",
    "district": "Hebron",
    "lat": 31.4167,
    "lng": 34.95
  },
  {
    "id": "370",
    "slug": "kafr-imrin",
    "name": "Kafr 'Imrin",
    "district": "Jenin",
    "lat": 32.4167,
    "lng": 35.15
  },
  {
    "id": "371",
    "slug": "mafjar-al-khayr",
    "name": "Mafjar al-Khayr",
    "district": "Haifa",
    "lat": 32.3167,
    "lng": 34.8833
  },
  {
    "id": "372",
    "slug": "khirbat-al-manara",
    "name": "Khirbat al-Manara",
    "district": "Haifa",
    "lat": 32.4333,
    "lng": 34.95
  },
  {
    "id": "373",
    "slug": "khirbat-al-shuna",
    "name": "Khirbat al-Shuna",
    "district": "Haifa",
    "lat": 32.55,
    "lng": 34.9833
  },
  {
    "id": "374",
    "slug": "naghnaghiyya",
    "name": "Naghnaghiyya",
    "district": "Haifa",
    "lat": 32.8167,
    "lng": 35.0833
  },
  {
    "id": "375",
    "slug": "wadi-al-qarn",
    "name": "Wadi al-Qarn",
    "district": "Acre",
    "lat": 33.0833,
    "lng": 35.15
  },
  {
    "id": "376",
    "slug": "al-kafrayn",
    "name": "al-Kafrayn",
    "district": "Haifa",
    "lat": 32.6167,
    "lng": 35.0833
  },
  {
    "id": "377",
    "slug": "khubbayza",
    "name": "Khubbayza",
    "district": "Haifa",
    "lat": 32.5333,
    "lng": 35.0667
  },
  {
    "id": "378",
    "slug": "lidd",
    "name": "Lidd",
    "district": "Haifa",
    "lat": 32.6,
    "lng": 35.15
  },
  {
    "id": "379",
    "slug": "qisarya",
    "name": "Qisarya",
    "district": "Haifa",
    "lat": 32.5,
    "lng": 34.9
  },
  {
    "id": "380",
    "slug": "bayt-jiz",
    "name": "Bayt Jiz",
    "district": "Ramle",
    "lat": 31.8333,
    "lng": 34.9333
  },
  {
    "id": "381",
    "slug": "khirbat-al-buwayra",
    "name": "Khirbat al-Buwayra",
    "district": "Ramle",
    "lat": 31.85,
    "lng": 34.9833
  },
  {
    "id": "382",
    "slug": "al-khunayfisa",
    "name": "al-Khunayfisa",
    "district": "Haifa",
    "lat": 32.5833,
    "lng": 35.2167
  },
  {
    "id": "383",
    "slug": "latrun",
    "name": "Latrun",
    "district": "Ramle",
    "lat": 31.8333,
    "lng": 34.9833
  },
  {
    "id": "384",
    "slug": "al-maghar",
    "name": "al-Maghar",
    "district": "Ramle",
    "lat": 31.9167,
    "lng": 34.8167
  },
  {
    "id": "385",
    "slug": "al-naima",
    "name": "al-Na'ima",
    "district": "Ramle",
    "lat": 31.8333,
    "lng": 34.85
  },
  {
    "id": "386",
    "slug": "amwas",
    "name": "'Amwas",
    "district": "Ramle",
    "lat": 31.8333,
    "lng": 34.9833
  },
  {
    "id": "387",
    "slug": "yibna",
    "name": "Yibna",
    "district": "Ramle",
    "lat": 31.8667,
    "lng": 34.75
  },
  {
    "id": "388",
    "slug": "abu-tulul",
    "name": "Abu Tulul",
    "district": "Beersheba",
    "lat": 31.1333,
    "lng": 34.9
  },
  {
    "id": "389",
    "slug": "al-araqib",
    "name": "al-'Araqib",
    "district": "Beersheba",
    "lat": 31.3333,
    "lng": 34.7833
  },
  {
    "id": "390",
    "slug": "asluj",
    "name": "Asluj",
    "district": "Beersheba",
    "lat": 31.0667,
    "lng": 34.7833
  },
  {
    "id": "391",
    "slug": "al-atawina",
    "name": "al-Atawina",
    "district": "Beersheba",
    "lat": 31.3667,
    "lng": 34.7
  },
  {
    "id": "392",
    "slug": "al-baha",
    "name": "al-Baha",
    "district": "Gaza",
    "lat": 31.45,
    "lng": 34.5833
  },
  {
    "id": "393",
    "slug": "al-chalazat",
    "name": "al-Chalazat",
    "district": "Beersheba",
    "lat": 31.1167,
    "lng": 34.65
  },
  {
    "id": "394",
    "slug": "al-haram-sayyidna-ali",
    "name": "al-Haram (Sayyidna 'Ali)",
    "district": "Jaffa",
    "lat": 32.1833,
    "lng": 34.8
  },
  {
    "id": "395",
    "slug": "ijlil-al-qibliyya",
    "name": "Ijlil al-Qibliyya",
    "district": "Jaffa",
    "lat": 32.1667,
    "lng": 34.8167
  },
  {
    "id": "396",
    "slug": "ijlil-al-shamaliyya",
    "name": "Ijlil al-Shamaliyya",
    "district": "Jaffa",
    "lat": 32.1833,
    "lng": 34.8167
  },
  {
    "id": "397",
    "slug": "al-jammasin-al-gharbi",
    "name": "al-Jammasin al-Gharbi",
    "district": "Jaffa",
    "lat": 32.1,
    "lng": 34.8
  },
  {
    "id": "398",
    "slug": "al-jammasin-al-sharqi",
    "name": "al-Jammasin al-Sharqi",
    "district": "Jaffa",
    "lat": 32.1,
    "lng": 34.8167
  },
  {
    "id": "399",
    "slug": "al-jiyada",
    "name": "al-Jiyada",
    "district": "Haifa",
    "lat": 32.5333,
    "lng": 35.1
  },
  {
    "id": "400",
    "slug": "kafrayn",
    "name": "Kafrayn",
    "district": "Haifa",
    "lat": 32.6167,
    "lng": 35.0833
  },
  {
    "id": "401",
    "slug": "dalayat-al-rawha",
    "name": "Dalayat al-Rawha'",
    "district": "Haifa",
    "lat": 32.6167,
    "lng": 35.1167
  },
  {
    "id": "402",
    "slug": "al-dumayri",
    "name": "al-Dumayri",
    "district": "Haifa",
    "lat": 32.5167,
    "lng": 35
  },
  {
    "id": "403",
    "slug": "ghubayat-al-tahta",
    "name": "Ghubayat al-Tahta",
    "district": "Haifa",
    "lat": 32.6,
    "lng": 35.1333
  },
  {
    "id": "404",
    "slug": "ghubayat-al-fawqa",
    "name": "Ghubayat al-Fawqa",
    "district": "Haifa",
    "lat": 32.6,
    "lng": 35.15
  },
  {
    "id": "405",
    "slug": "al-mazar-haifa",
    "name": "al-Mazar (Haifa)",
    "district": "Haifa",
    "lat": 32.7,
    "lng": 34.9667
  },
  {
    "id": "406",
    "slug": "qira-wa-qamun",
    "name": "Qira wa Qamun",
    "district": "Haifa",
    "lat": 32.65,
    "lng": 35.1
  },
  {
    "id": "407",
    "slug": "zarnuqa",
    "name": "Zarnuqa",
    "district": "Ramle",
    "lat": 31.8667,
    "lng": 34.7833
  },
  {
    "id": "408",
    "slug": "al-burj",
    "name": "al-Burj",
    "district": "Ramle",
    "lat": 31.9167,
    "lng": 35
  },
  {
    "id": "409",
    "slug": "dayr-muhaysin",
    "name": "Dayr Muhaysin",
    "district": "Ramle",
    "lat": 31.8333,
    "lng": 34.95
  },
  {
    "id": "410",
    "slug": "dayr-abu-salama",
    "name": "Dayr Abu Salama",
    "district": "Ramle",
    "lat": 31.9667,
    "lng": 34.9667
  },
  {
    "id": "411",
    "slug": "idhnabba",
    "name": "Idhnabba",
    "district": "Ramle",
    "lat": 31.7833,
    "lng": 34.9
  },
  {
    "id": "412",
    "slug": "jindas",
    "name": "Jindas",
    "district": "Ramle",
    "lat": 31.9667,
    "lng": 34.9
  },
  {
    "id": "413",
    "slug": "khirbat-al-duhayriyya",
    "name": "Khirbat al-Duhayriyya",
    "district": "Ramle",
    "lat": 31.8167,
    "lng": 34.9667
  },
  {
    "id": "414",
    "slug": "al-kunayyisa",
    "name": "al-Kunayyisa",
    "district": "Ramle",
    "lat": 31.75,
    "lng": 34.8667
  },
  {
    "id": "415",
    "slug": "al-qazaza",
    "name": "al-Qazaza",
    "district": "Ramle",
    "lat": 31.8167,
    "lng": 34.8667
  },
  {
    "id": "416",
    "slug": "sajad",
    "name": "Sajad",
    "district": "Ramle",
    "lat": 31.7833,
    "lng": 34.8667
  },
  {
    "id": "417",
    "slug": "shahma",
    "name": "Shahma",
    "district": "Ramle",
    "lat": 31.8333,
    "lng": 34.8333
  },
  {
    "id": "418",
    "slug": "al-shaykh-sulayman",
    "name": "al-Shaykh Sulayman",
    "district": "Gaza",
    "lat": 31.4333,
    "lng": 34.5
  },
  {
    "id": "419",
    "slug": "sumsum",
    "name": "Sumsum",
    "district": "Gaza",
    "lat": 31.5667,
    "lng": 34.65
  },
  {
    "id": "420",
    "slug": "al-tell-al-safi",
    "name": "al-Tell al-Safi",
    "district": "Hebron",
    "lat": 31.7,
    "lng": 34.8333
  },
  {
    "id": "421",
    "slug": "khirbat-umm-burj",
    "name": "Khirbat Umm Burj",
    "district": "Hebron",
    "lat": 31.6,
    "lng": 34.95
  },
  {
    "id": "422",
    "slug": "bayt-itab",
    "name": "Bayt 'Itab",
    "district": "Jerusalem",
    "lat": 31.7333,
    "lng": 35.0667
  },
  {
    "id": "423",
    "slug": "ayn-ghazal",
    "name": "Ayn Ghazal",
    "district": "Haifa",
    "lat": 32.6083,
    "lng": 35.005
  },
  {
    "id": "424",
    "slug": "ijzim",
    "name": "Ijzim",
    "district": "Haifa",
    "lat": 32.6256,
    "lng": 35.0083
  },
  {
    "id": "425",
    "slug": "al-tantura",
    "name": "al-Tantura",
    "district": "Haifa",
    "lat": 32.613,
    "lng": 34.921
  },
  {
    "id": "426",
    "slug": "abu-kishk",
    "name": "Abu Kishk",
    "district": "Jaffa",
    "lat": 32.1333,
    "lng": 34.8667
  },
  {
    "id": "427",
    "slug": "al-amiriya",
    "name": "al-'Amiriya",
    "district": "Tulkarm",
    "lat": 32.2833,
    "lng": 34.95
  },
  {
    "id": "428",
    "slug": "al-harithiyya",
    "name": "al-Harithiyya",
    "district": "Haifa",
    "lat": 32.6833,
    "lng": 35.15
  },
  {
    "id": "429",
    "slug": "al-jalama",
    "name": "al-Jalama",
    "district": "Tulkarm",
    "lat": 32.4167,
    "lng": 35
  },
  {
    "id": "430",
    "slug": "al-khayma",
    "name": "al-Khayma",
    "district": "Haifa",
    "lat": 32.5167,
    "lng": 35.0333
  },
  {
    "id": "431",
    "slug": "ramin",
    "name": "Ramin",
    "district": "Tulkarm",
    "lat": 32.2833,
    "lng": 35.1333
  },
  {
    "id": "432",
    "slug": "al-shuna",
    "name": "al-Shuna",
    "district": "Safad",
    "lat": 32.9667,
    "lng": 35.5667
  },
  {
    "id": "433",
    "slug": "al-tira",
    "name": "al-Tira",
    "district": "Baysan",
    "lat": 32.5,
    "lng": 35.45
  },
  {
    "id": "434",
    "slug": "yubla",
    "name": "Yubla",
    "district": "Tiberias",
    "lat": 32.65,
    "lng": 35.5
  },
  {
    "id": "435",
    "slug": "al-zaytuna",
    "name": "al-Zaytuna",
    "district": "Beersheba",
    "lat": 31.25,
    "lng": 34.9
  },
  {
    "id": "436",
    "slug": "zita",
    "name": "Zita",
    "district": "Hebron",
    "lat": 31.6333,
    "lng": 34.85
  },
  {
    "id": "437",
    "slug": "al-zubayd",
    "name": "al-Zubayd",
    "district": "Safad",
    "lat": 32.9167,
    "lng": 35.6
  },
  {
    "id": "438",
    "slug": "al-zaytuna-safad",
    "name": "al-Zaytuna (Safad)",
    "district": "Safad",
    "lat": 33.0167,
    "lng": 35.5167
  },
  {
    "id": "439",
    "slug": "suhmata",
    "name": "Suhmata",
    "district": "Acre",
    "lat": 33.0167,
    "lng": 35.3
  },
  {
    "id": "440",
    "slug": "al-arab-al-shamalina",
    "name": "al-'Arab al-Shamalina",
    "district": "Tiberias",
    "lat": 32.9,
    "lng": 35.5833
  },
  {
    "id": "441",
    "slug": "al-dalhamiyya",
    "name": "al-Dalhamiyya",
    "district": "Tiberias",
    "lat": 32.6667,
    "lng": 35.5667
  },
  {
    "id": "442",
    "slug": "khirbat-al-wara-al-sawda",
    "name": "Khirbat al-Wa'ra al-Sawda'",
    "district": "Tiberias",
    "lat": 32.9167,
    "lng": 35.5833
  },
  {
    "id": "443",
    "slug": "al-qudayriyya",
    "name": "al-Qudayriyya",
    "district": "Tiberias",
    "lat": 32.95,
    "lng": 35.55
  },
  {
    "id": "444",
    "slug": "samra",
    "name": "Samra",
    "district": "Tiberias",
    "lat": 32.7167,
    "lng": 35.6167
  },
  {
    "id": "445",
    "slug": "zirin",
    "name": "Zir'in",
    "district": "Jenin",
    "lat": 32.55,
    "lng": 35.3167
  },
  {
    "id": "446",
    "slug": "balad-al-shaykh",
    "name": "Balad al-Shaykh",
    "district": "Haifa",
    "lat": 32.7833,
    "lng": 35.05
  },
  {
    "id": "447",
    "slug": "arab-al-nufayat",
    "name": "'Arab al-Nufay'at",
    "district": "Haifa",
    "lat": 32.5333,
    "lng": 34.95
  },
  {
    "id": "448",
    "slug": "bika",
    "name": "Bika",
    "district": "Tulkarm",
    "lat": 32.3333,
    "lng": 34.9833
  },
  {
    "id": "449",
    "slug": "burayka",
    "name": "Burayka",
    "district": "Haifa",
    "lat": 32.5667,
    "lng": 34.9667
  },
  {
    "id": "450",
    "slug": "al-ghubayya-al-tahta",
    "name": "al-Ghubayya al-Tahta",
    "district": "Haifa",
    "lat": 32.6,
    "lng": 35.1333
  },
  {
    "id": "451",
    "slug": "al-ghubayya-al-fawqa",
    "name": "al-Ghubayya al-Fawqa",
    "district": "Haifa",
    "lat": 32.6,
    "lng": 35.15
  },
  {
    "id": "452",
    "slug": "ayn-hawd",
    "name": "'Ayn Hawd",
    "district": "Haifa",
    "lat": 32.7,
    "lng": 35.0167
  },
  {
    "id": "453",
    "slug": "al-tira",
    "name": "al-Tira",
    "district": "Haifa",
    "lat": 32.7619,
    "lng": 34.9753
  },
  {
    "id": "454",
    "slug": "jaba",
    "name": "Jaba'",
    "district": "Haifa",
    "lat": 32.65,
    "lng": 34.9667
  },
  {
    "id": "455",
    "slug": "khirbat-al-sarkas",
    "name": "Khirbat al-Sarkas",
    "district": "Haifa",
    "lat": 32.4833,
    "lng": 34.9833
  },
  {
    "id": "456",
    "slug": "khirbat-al-sawamir",
    "name": "Khirbat al-Sawamir",
    "district": "Haifa",
    "lat": 32.6333,
    "lng": 35
  },
  {
    "id": "457",
    "slug": "khirbat-lid",
    "name": "Khirbat Lid",
    "district": "Haifa",
    "lat": 32.6,
    "lng": 35.15
  },
  {
    "id": "458",
    "slug": "umm-al-amad",
    "name": "Umm al-'Amad",
    "district": "Haifa",
    "lat": 32.7,
    "lng": 35.15
  },
  {
    "id": "459",
    "slug": "allar",
    "name": "'Allar",
    "district": "Jerusalem",
    "lat": 31.73,
    "lng": 35.05
  },
  {
    "id": "460",
    "slug": "beit-thul",
    "name": "Beit Thul",
    "district": "Jerusalem",
    "lat": 31.8167,
    "lng": 35.1167
  },
  {
    "id": "461",
    "slug": "jaba",
    "name": "Jaba'",
    "district": "Jerusalem",
    "lat": 31.85,
    "lng": 35.25
  },
  {
    "id": "462",
    "slug": "khirbat-al-deir",
    "name": "Khirbat al-Deir",
    "district": "Hebron",
    "lat": 31.5333,
    "lng": 35.0667
  },
  {
    "id": "463",
    "slug": "al-qubayba",
    "name": "al-Qubayba",
    "district": "Hebron",
    "lat": 31.5833,
    "lng": 34.8333
  },
  {
    "id": "464",
    "slug": "al-majd",
    "name": "al-Majd",
    "district": "Hebron",
    "lat": 31.45,
    "lng": 34.9667
  },
  {
    "id": "465",
    "slug": "al-abisiyya",
    "name": "al-'Abisiyya",
    "district": "Jaffa",
    "lat": 32.0314,
    "lng": 34.8903
  },
  {
    "id": "466",
    "slug": "al-sawalima",
    "name": "al-Sawalima",
    "district": "Jaffa",
    "lat": 32.1667,
    "lng": 34.8
  },
  {
    "id": "467",
    "slug": "danna",
    "name": "Danna",
    "district": "Baysan",
    "lat": 32.5667,
    "lng": 35.35
  },
  {
    "id": "468",
    "slug": "tall-al-shawk",
    "name": "Tall al-Shawk",
    "district": "Baysan",
    "lat": 32.5,
    "lng": 35.4833
  },
  {
    "id": "469",
    "slug": "al-bira",
    "name": "al-Bira",
    "district": "Baysan",
    "lat": 32.55,
    "lng": 35.45
  },
  {
    "id": "470",
    "slug": "absiyya",
    "name": "'Absiyya",
    "district": "Safad",
    "lat": 33.0833,
    "lng": 35.6167
  },
  {
    "id": "471",
    "slug": "al-thahiriyya-al-fawqa",
    "name": "al-Thahiriyya al-Fawqa",
    "district": "Safad",
    "lat": 32.9667,
    "lng": 35.5333
  },
  {
    "id": "472",
    "slug": "khirbat-al-zababida",
    "name": "Khirbat al-Zababida",
    "district": "Tulkarm",
    "lat": 32.4167,
    "lng": 35.0333
  },
  {
    "id": "473",
    "slug": "miski",
    "name": "Miski",
    "district": "Tulkarm",
    "lat": 32.2333,
    "lng": 34.9333
  },
  {
    "id": "474",
    "slug": "al-jibil",
    "name": "al-Jibil",
    "district": "Beersheba",
    "lat": 31.4167,
    "lng": 35
  },
  {
    "id": "475",
    "slug": "al-muzayria",
    "name": "al-Muzayri'a",
    "district": "Ramle",
    "lat": 32,
    "lng": 34.95
  },
  {
    "id": "476",
    "slug": "al-qastal",
    "name": "al-Qastal",
    "district": "Jerusalem",
    "lat": 31.7956,
    "lng": 35.1442
  },
  {
    "id": "477",
    "slug": "qalunya",
    "name": "Qalunya",
    "district": "Jerusalem",
    "lat": 31.7969,
    "lng": 35.1628
  },
  {
    "id": "478",
    "slug": "al-walaja",
    "name": "al-Walaja",
    "district": "Jerusalem",
    "lat": 31.7333,
    "lng": 35.15
  },
  {
    "id": "479",
    "slug": "saris",
    "name": "Saris",
    "district": "Jerusalem",
    "lat": 31.7981,
    "lng": 35.0739
  },
  {
    "id": "480",
    "slug": "sataf",
    "name": "Sataf",
    "district": "Jerusalem",
    "lat": 31.7833,
    "lng": 35.1333
  },
  {
    "id": "481",
    "slug": "suba",
    "name": "Suba",
    "district": "Jerusalem",
    "lat": 31.785,
    "lng": 35.1256
  },
  {
    "id": "482",
    "slug": "barfiliya",
    "name": "Barfiliya",
    "district": "Ramle",
    "lat": 31.9167,
    "lng": 34.9833
  },
  {
    "id": "483",
    "slug": "bashshit",
    "name": "Bashshit",
    "district": "Ramle",
    "lat": 31.85,
    "lng": 34.7833
  },
  {
    "id": "484",
    "slug": "bayt-nabala",
    "name": "Bayt Nabala",
    "district": "Ramle",
    "lat": 31.9833,
    "lng": 34.95
  },
  {
    "id": "485",
    "slug": "bayt-shanna",
    "name": "Bayt Shanna",
    "district": "Ramle",
    "lat": 31.8667,
    "lng": 35
  },
  {
    "id": "486",
    "slug": "bayt-susin",
    "name": "Bayt Susin",
    "district": "Ramle",
    "lat": 31.8333,
    "lng": 34.9667
  },
  {
    "id": "487",
    "slug": "bir-main",
    "name": "Bir Ma'in",
    "district": "Ramle",
    "lat": 31.9,
    "lng": 34.9833
  },
  {
    "id": "488",
    "slug": "burj",
    "name": "Burj",
    "district": "Ramle",
    "lat": 31.9167,
    "lng": 35
  },
  {
    "id": "489",
    "slug": "daniyal",
    "name": "Daniyal",
    "district": "Ramle",
    "lat": 31.9333,
    "lng": 34.9167
  },
  {
    "id": "490",
    "slug": "dayr-tarif",
    "name": "Dayr Tarif",
    "district": "Ramle",
    "lat": 31.9667,
    "lng": 34.9333
  },
  {
    "id": "491",
    "slug": "haditha",
    "name": "Haditha",
    "district": "Ramle",
    "lat": 31.9833,
    "lng": 34.9667
  },
  {
    "id": "492",
    "slug": "khirbat-bayt-far",
    "name": "Khirbat Bayt Far",
    "district": "Ramle",
    "lat": 31.9,
    "lng": 34.9
  },
  {
    "id": "493",
    "slug": "al-nabi-yusha",
    "name": "al-Nabi Yusha'",
    "district": "Safad",
    "lat": 33.1167,
    "lng": 35.5333
  },
  {
    "id": "494",
    "slug": "lydda",
    "name": "Lydda",
    "district": "Ramle",
    "lat": 31.95,
    "lng": 34.9
  },
  {
    "id": "495",
    "slug": "al-ramla",
    "name": "al-Ramla",
    "district": "Ramle",
    "lat": 31.9167,
    "lng": 34.8667
  },
  {
    "id": "496",
    "slug": "jaffa",
    "name": "Jaffa",
    "district": "Jaffa",
    "lat": 32.05,
    "lng": 34.75
  },
  {
    "id": "497",
    "slug": "haifa",
    "name": "Haifa",
    "district": "Haifa",
    "lat": 32.8167,
    "lng": 34.9833
  },
  {
    "id": "498",
    "slug": "acre",
    "name": "Acre",
    "district": "Acre",
    "lat": 32.9167,
    "lng": 35.0667
  },
  {
    "id": "499",
    "slug": "safad",
    "name": "Safad",
    "district": "Safad",
    "lat": 32.9667,
    "lng": 35.5
  },
  {
    "id": "500",
    "slug": "beisan",
    "name": "Beisan",
    "district": "Baysan",
    "lat": 32.5,
    "lng": 35.5
  }
]
